stop_id,stop_name,stop_lat,stop_lon
1000,Crnuce,46.10426520000001,14.5358247
1001,Rogovilc,46.1027401,14.5314225
1002,Kolodvro Crnuce,46.1014714,14.5262262
1003,Sava,46.1008589,14.5217947
1004,Jezica,46.0975186,14.5170689
1005,Ruski car,46.0906394,14.5139311
1006,Stozice,46.0862378,14.513955
1007,Smelt,46.0822753,14.5131684
1008,AMZS,46.0777636,14.5121766
1009,Mercator,46.073607,14.5112611
1010,Stadion,46.069446,14.5103342
1011,Astra,46.0649286,14.5089807
1012,Razstavisce,46.06109170000001,14.5075506
1013,Bavarski dvor,46.056648,14.5056028
1014,Posta,46.0522258,14.5034508
1015,Drama,46.0490623,14.5019478
1016,Askerceva,46.0465914,14.4993631
1017,Tobacna,46.0469033,14.4944646
1018,Hajdrihova,46.0459118,14.4902892
1019,Staon in dom,46.0445455,14.4870131
1020,Glince,46.0432358,14.4821915
1021,Vic,46.04204860000001,14.4774061
1022,Bonifacija,46.0404553,14.4737332
1023,Dolgi most P+R,46.0370762,14.4640133
1024,Savlje,46.0952664,14.5044375
1025,Kalisnikov trg,46.0935003,14.5111058
1026,Cerinova,46.0899827,14.5122693
1027,7. septembra,46.0899381,14.5084624
1028,Gorjanceva,46.0849409,14.5076619
1029,Pohorskega bataljona,46.082087,14.5073087
1030,Brinje,46.07690179999999,14.5057412
1031,Vodovodna,46.0746297,14.5046461
1032,Podmilscakova,46.0693978,14.5035367
1033,Bratov Zidan,46.0653963,14.5030116
1034,Parmova,46.0638077,14.504731
1035,Hranilniska,46.0638398,14.5073383
1036,Razstavisce,46.06109170000001,14.5075506
1037,Bavarski dvor,46.056648,14.5056028
1038,Ajdovscina,46.053539,14.5039869
1039,Konzorcij,46.05099790000001,14.5029186
1040,Cankarjev dom,46.0500309,14.4969975
1041,Pod Roznikom,46.0511107,14.4920141
1042,Studentsko naselje,46.0496168,14.4884525
1043,Rozna dolina,46.0478099,14.4822001
1044,Cesta XV,46.0458962,14.480801
1045,Jamnikarjeva,46.0449257,14.4752329
1046,Visko polje,46.0462514,14.4690299
1047,Podmornica,46.04729649999999,14.4643492
1048,Preval,46.0473463,14.4592377
1049,Brdo,46.0473337,14.4536907
1050,Vrhovci,46.04493350000001,14.4554973
1051,Letaliska,46.0621319,14.5705526
1052,Rog,46.0620972,14.5675232
1053,GZL,46.0620474,14.563412
1054,Leskoskova,46.0619867,14.5582152
1055,Yulon,46.0619209,14.5527128
1056,Bratislavska,46.0661801,14.5514264
1057,Nove Jarse,46.07023230000001,14.5484481
1058,Zito,46.06978609999999,14.545278
1059,Kodrova,46.0692995,14.541475
1060,Jarse,46.068343,14.5367404
1061,Sola Jarse,46.0666295,14.5332344
1062,Pokopaliska,46.0655715,14.5292191
1063,Zale,46.0668397,14.5274853
1064,Savske Stolpnice,46.065708,14.5218039
1065,Prekmurska,46.0646488,14.5165539
1066,Bezigrad,46.06364929999999,14.5117877
1067,Razstavisce,46.06109170000001,14.5075506
1068,Bavarski Dvor,46.056648,14.5056028
1069,Hotel Lev,46.0562371,14.501879
1070,Tivoli,46.0599598,14.4978547
1071,Stara cerkev,46.0648844,14.4940067
1072,Na jami,46.06657999999999,14.4897857
1073,Bolnica P Drzaja,46.0675947,14.4858288
1074,Zgornja Siska,46.0700918,14.4804679
1075,Trznica Koseze,46.0739826,14.475972
1076,Cebelarska,46.0784361,14.4717827
1077,Plesiceva,46.0816245,14.4695943
1078,Andreja Bitenca,46.0853944,14.465171
1079,Przan,46.0884351,14.4592702
1080,Przan,46.0884351,14.4592702
1081,Andreja Bitenca,46.0853944,14.465171
1082,Plesiceva,46.0816245,14.4695943
1083,Cebelarska,46.0784361,14.4717827
1084,Trznica Koseze,46.0739826,14.475972
1085,Zgornja Siska,46.0700918,14.4804679
1086,Bolnica P Drzaja,46.0675947,14.4858288
1087,Na Jami,46.06657999999999,14.4897857
1088,Stara cerkev,46.0648844,14.4940067
1089,Tivoli,46.0599598,14.4978547
1090,Bavarski Dvor,46.056648,14.5056028
1091,Razstavisce,46.06109170000001,14.5075506
1092,Bezigrad,46.06364929999999,14.5117877
1093,Prekmurksa,46.0646488,14.5165539
1094,Savske stolpnice,46.065708,14.5218039
1095,Zale,46.0668397,14.5274853
1096,Pokopaliska,46.0655715,14.5292191
1097,Sola Jarse,46.0666295,14.5332344
1098,Jarse,46.068343,14.5367404
1099,Kodrova,46.0692995,14.541475
1100,Zito,46.06978609999999,14.545278
1101,Nove Jarse,46.07023230000001,14.5484481
1102,Bratislavksa,46.0661801,14.5514264
1103,Yulon,46.0619209,14.5527128
1104,Leskovskova,46.0619867,14.5582152
1105,GZL,46.0620474,14.563412
1106,Rog,46.0620972,14.5675232
1107,Letaliska,46.0621319,14.5705526
1108,Nove Stozice P+R,46.0814279,14.5199335
1109,Maroltova,46.0794513,14.5197816
1110,Puhova,46.0764608,14.5195442
1111,Kardeljeva ploscad,46.0725902,14.519236
1112,Gasilska brigada,46.068625,14.5169488
1113,Bezigrad,46.06364929999999,14.5117877
1114,Razstavisce,46.06109170000001,14.5075506
1115,Bavarski dvor,46.056648,14.5056028
1116,Dalmatinova,46.054201,14.5053164
1117,Turist,46.0537256,14.5074968
1118,Zmajski most,46.0515139,14.5105536
1119,Poljanska,46.0501041,14.5156874
1120,Ambrozev trg,46.0496477,14.5169309
1121,Roska,46.0493912,14.5193972
1122,Klinicni center,46.0523129,14.52056
1123,Bolnica,46.054376,14.5289185
1124,Trznica Moste,46.0557149,14.5344967
1125,Zaloska,46.0560319,14.5395024
1126,Brodarjev trg,46.0542302,14.5534442
1127,Preglov trg,46.05461529999999,14.5588679
1128,Rusjanov trg ,46.0546172,14.5628498
1129,Fuzine P+R,46.0525771,14.5658733
1130,Dolgi most P+R,46.0370762,14.4640133
1131,Bonifacija,46.0404553,14.4737332
1132,Vic,46.04204860000001,14.4774061
1133,Glince,46.0432358,14.4821915
1134,Stan in dom,46.0445455,14.4870131
1135,Hajdrihova,46.0459118,14.4902892
1136,Tobacna,46.0469033,14.4944646
1137,Askerceva,46.0465914,14.4993631
1138,Drama,46.0490623,14.5019478
1139,Konzorcij,46.05099790000001,14.5029186
1140,Ajdovscina,46.053539,14.5039869
1141,Bavarski dvor,46.056648,14.5056028
1142,Razstavisce,46.06109170000001,14.5075506
1143,Astra,46.0649286,14.5089807
1144,Stadion,46.069446,14.5103342
1145,Mercator,46.073607,14.5112611
1146,AMZS,46.0777636,14.5121766
1147,Smelt,46.0822753,14.5131684
1148,Stozice,46.0862378,14.513955
1149,Ruski car,46.0906394,14.5139311
1150,Jezica,46.0975186,14.5170689
1151,Sava,46.1008589,14.5217947
1152,Kolodvor Crnuce,46.1014714,14.5262262
1153,Rogovilc,46.1027401,14.5314225
1154,Crnuce,46.10426520000001,14.5358247
1155,NS Rudnik,46.0180225,14.5348096
1156,Bobrova,46.0240114,14.5321792
1157,Jurckova,46.0264949,14.5276211
1158,Mihov stadron,46.0291213,14.5219197
1159,Galjevica,46.0333037,14.5129136
1160,Izanska,46.0349501,14.5128939
1161,Stelisce,46.0392796,14.5170549
1162,Privoz,46.0439427,14.5113451
1163,Gornji trg,46.0458103,14.5063623
1164,Krizanke,46.0461122,14.5022038
1165,Drama,46.0490623,14.5019478
1166,Posta,46.0522258,14.5034508
1167,Bavarski dvor,46.056648,14.5056028
1168,Kolodvor,46.0577365,14.5113548
1169,Friskovec,46.0573631,14.5183045
1170,Viadukt,46.0594849,14.5207506
1171,Srediska,46.0625326,14.5248519
1172,Flajsmanova,46.064753,14.529458
1173,Sola Jarse,46.0666295,14.5332344
1174,Jarse,46.068343,14.5367404
1175,BTC - Uprava,46.0682104,14.5419301
1176,Trznica,46.0655274,14.5440297
1177,BTC - Kolosej,46.0652786,14.5487694
1178,BTC - Emporium,46.0620992,14.5448969
1179,Yulon,46.0619209,14.5527128
1180,Leskovskova,46.0619867,14.5582152
1181,GZL,46.0620474,14.563412
1182,Rog,46.0620972,14.5675232
1183,Letaliska,46.0621319,14.5705526
1184,Fuzine P+R,46.0525771,14.5658733
1185,Rusjanov trg,46.0546172,14.5628498
1186,Preglov trg,46.05461529999999,14.5588679
1187,Brodarjev trg,46.0542302,14.5534442
1188,Pot na Fuzine,46.0560779,14.5511269
1189,Zaloska,46.0560319,14.5395024
1190,Trznica Moste,46.0557149,14.5344967
1191,Bolnica,46.054376,14.5289185
1192,Klinicni center,46.0523129,14.52056
1193,Ambrozev trg,46.0496477,14.5169309
1194,Poljanska,46.0501041,14.5156874
1195,Zmajski most,46.0515139,14.5105536
1196,Tavcarjeva,46.0546255,14.5062913
1197,Bavarski dvor,46.056648,14.5056028
1198,Razstavisce,46.06109170000001,14.5075506
1199,Bezigrad,46.06364929999999,14.5117877
1200,Krziceva,46.0654137,14.5141152
1201,Gasilska Brigada,46.068625,14.5169488
1202,Puhova,46.0764608,14.5195442
1203,Nove Stozice,46.0814279,14.5199335
1204,Letaliska,46.0621319,14.5705526
1205,Rog,46.0620972,14.5675232
1206,GZL,46.0620474,14.563412
1207,Leskovskova,46.0619867,14.5582152
1208,Yulon,46.0619209,14.5527128
1209,BTC - Emporium,46.0620992,14.5448969
1210,BTC - Kolosej,46.0652786,14.5487694
1211,Trznica,46.0655274,14.5440297
1212,BTC - Uprava,46.0682104,14.5419301
1213,Jarse,46.068343,14.5367404
1214,Sola Jarse,46.0666295,14.5332344
1215,Flajsmanova,46.064753,14.529458
1216,Srediska,46.0625326,14.5248519
1217,Viadukt,46.0594849,14.5207506
1218,Friskovec,46.0573631,14.5183045
1219,Kolodvor,46.0577365,14.5113548
1220,Bavarski dvor,46.056648,14.5056028
1221,Posta,46.0522258,14.5034508
1222,Drama,46.0490623,14.5019478
1223,Krizanke,46.0461122,14.5022038
1224,Gornji trg,46.0458103,14.5063623
1225,Privoz,46.0439427,14.5113451
1226,Strelisce,46.0392796,14.5170549
1227,Izanska,46.0349501,14.5128939
1228,Galjevica,46.0333037,14.5129136
1229,Mihov stradon,46.0291213,14.5219197
1230,Jurckova,46.0264949,14.5276211
1231,Bobrova,46.0240114,14.5321792
1232,NS Rudnik,46.0180225,14.5348096
1233,Brezovica,46.0215139,14.4264028
1234,Preserje,45.96565,14.3963667
1235,Notranje Gorice,45.9875889,14.4024361
1236,Brezovica,46.0215139,14.4264028
1237,Ljubljana Tivoli,46.0502083,14.4940361
1238,Ljubljana,46.0581083,14.5102778
1239,Ljubljana,46.0581083,14.5102778
1240,Ljubljana Tivoli,46.0502083,14.4940361
1241,Brezovica,46.0215139,14.4264028
1242,Notranje Gorice,45.9875889,14.4024361
1243,Preserje,45.96565,14.3963667
1244,Borovnica,45.9213889,14.3677222
1245,Ljubljana,46.0581083,14.5102778
1246,Ljubljana Polje,46.0588333,14.5847083
1247,Ljubljana Zalog,46.0597556,14.6153611
1248,Laze,46.08805,14.6876694
1249,Jevnica,46.084025,14.7367583
1250,Kresnice,46.10299999999999,14.7911667
1251,Litija,46.05834000000001,14.825072
1252,Litija,46.05834000000001,14.825072
1253,Kresnice,46.10299999999999,14.7911667
1254,Jevnica,46.084025,14.7367583
1255,Laze,46.08805,14.6876694
1256,Ljubljana Zalog,46.0597556,14.6153611
1257,Ljubljana Polje,46.0588333,14.5847083
1258,Ljubljana,46.0581083,14.5102778
1259,Kamnik,46.2207028,14.60375
1260,Duplica-Bakovnik,46.2060361,14.59435
1261,Smarca,46.1930972,14.5886083
1262,Homec pri Kamniku,46.1798639,14.5906917
1263,Rodica,46.1490306,14.592425
1264,Domzale,46.139275,14.5924944
1265,Trzin,46.13283610000001,14.5675889
1266,Trzin Mlake,46.1286028,14.5596694
1267,Trzin ind. cona,46.1189056,14.5509306
1268,Ljubljana Crnuce,46.101175,14.5262528
1269,Ljubljana Jezica,46.0898556,14.5073917
1270,Ljubljana BrinjeLjubljana,46.07624999999999,14.5030111
1271,Ljubljana,46.0581083,14.5102778
1272,Litostroj,46.07736389999999,14.4897194
1273,Ljubljana Stegne,46.08680560000001,14.4799778
1274,Ljubljana Vizmarje,46.1003972,14.4644694
1275,Medno,46.1221444,14.4390528
1276,Medvode,46.13806109999999,14.4122889
1277,Retece,46.1566333,14.3712056
1278,Skofja Loka,46.1742389,14.3355444
1279,Kranj,46.239011,14.348167
1280,Ljubljana,46.0581083,14.5102778
1281,Ljubljana Brinje,46.07624999999999,14.5030111
1282,Ljubljana Jezica,46.0898556,14.5073917
1283,Ljubljana Crnuce,46.101175,14.5262528
1284,Trzin ind. cona,46.1189056,14.5509306
1285,Trzin Mlake,46.1286028,14.5596694
1286,Trzin,46.13283610000001,14.5675889
1287,Domzale,46.139275,14.5924944
1288,Rodica,46.1490306,14.592425
1289,Jarse-Menges,46.1656917,14.5939528
1290,Homec pri Kamniku,46.1798639,14.5906917
1291,Smarca,46.1930972,14.5886083
1292,Duplica-Bakovnik,46.2060361,14.59435
1293,Kamnik,46.2207028,14.60375
1294,Ljubljana,46.0581083,14.5102778
1295,Ljubljana - Vodmat,46.0557944,14.5291305
1296,Ljubljana - Rakovnik,46.0370944,14.5189833
1297,Skofljica,45.9844833,14.5729611
1298,Smarje-Sap,45.9749722,14.6175722
1299,Grosuplje,45.9560667,14.6525111
1300,Kranj,46.239011,14.348167
1301,Skofja Loka,46.1742389,14.3355444
1302,Retece,46.1566333,14.3712056
1303,Medvode,46.13806109999999,14.4122889
1304,Medno,46.1221444,14.4390528
1305,Ljubljana Vizmarje,46.1003972,14.4644694
1306,Ljubljana Stegne,46.08680560000001,14.4799778
1307,Litostroj,46.07736389999999,14.4897194
1308,Ljubljana,46.0581083,14.5102778
1309,Grosuplje,45.9560667,14.6525111
1310,Smarje-Sap,45.9749722,14.6175722
1311,Skofljica,45.9844833,14.5729611
1312,Ljubljana - Rakovnik,46.0370944,14.5189833
1313,Ljubljana - Vodmat,46.0557944,14.5291305
1314,Ljubljana,46.0581083,14.5102778